City_ID,City,Country,Date,Lat,Lng,Max Temp,Humidity,Cloudiness,Wind Speed,Weather Description
0,Ahipara,NZ,11/17/2022 13:35,-35.1667,173.1667,60.64,94,100,2.37,light rain
1,Atuona,PF,11/17/2022 13:35,-9.8,-139.0333,77.13,76,96,13.31,overcast clouds
2,Mataura,NZ,11/17/2022 13:35,-46.1927,168.8643,52.79,97,100,1.01,overcast clouds
3,Yellowknife,CA,11/17/2022 13:33,62.456,-114.3525,14.56,85,75,5.75,broken clouds
4,Jamestown,US,11/17/2022 13:35,42.097,-79.2353,31.71,78,100,10,light snow
5,New Norfolk,AU,11/17/2022 13:35,-42.7826,147.0587,49.5,73,9,2.51,clear sky
6,Tecate,MX,11/17/2022 13:30,32.5667,-116.6333,55.58,22,67,12.17,broken clouds
7,Spirit River,CA,11/17/2022 13:30,55.7833,-118.8361,-1.77,88,77,4.92,broken clouds
8,Umm Lajj,SA,11/17/2022 13:30,25.0213,37.2685,77.38,54,100,12.64,overcast clouds
9,Laguna,US,11/17/2022 13:37,38.421,-121.4238,53.01,93,0,0,clear sky
10,Muros,ES,11/17/2022 13:39,42.7762,-9.0603,62.1,74,98,15.88,overcast clouds
11,Ponta Do Sol,PT,11/17/2022 13:35,32.6667,-17.1,77.13,66,49,8.08,scattered clouds
12,Busselton,AU,11/17/2022 13:35,-33.65,115.3333,53.74,81,78,7.2,broken clouds
13,Kaitangata,NZ,11/17/2022 13:39,-46.2817,169.8464,52,96,100,2.37,light rain
14,Saint-Philippe,RE,11/17/2022 13:35,-21.3585,55.7679,76.59,72,53,7.25,broken clouds
15,Craigieburn,AU,11/17/2022 13:30,-37.6,144.95,49.1,87,20,0,few clouds
16,Tiksi,RU,11/17/2022 13:35,71.6872,128.8694,-14.82,99,100,5.28,overcast clouds
17,Kununurra,AU,11/17/2022 13:36,-15.7667,128.7333,82.38,78,48,2.3,scattered clouds
18,Najran,SA,11/17/2022 13:39,17.4924,44.1277,83.05,18,0,12.97,clear sky
19,Bredasdorp,ZA,11/17/2022 13:36,-34.5322,20.0403,65.23,52,100,12.59,overcast clouds
20,Mitsamiouli,KM,11/17/2022 13:31,-11.3847,43.2844,84.49,70,40,6.91,scattered clouds
21,Lasa,IT,11/17/2022 13:39,46.6166,10.7002,50.88,79,97,1.74,overcast clouds
22,Darnah,LY,11/17/2022 13:39,32.767,22.6367,76.3,29,3,18.37,clear sky
23,Ushuaia,AR,11/17/2022 13:36,-54.8,-68.3,49.66,66,75,6.91,broken clouds
24,Airai,TL,11/17/2022 13:36,-8.9266,125.4092,63.5,91,100,2.1,overcast clouds
25,Toamasina,MG,11/17/2022 13:39,-18.1667,49.3833,80.6,69,20,10.36,few clouds
26,Owando,CG,11/17/2022 13:31,-0.4819,15.8999,78.26,80,72,2.51,light rain
27,Namibe,AO,11/17/2022 13:36,-15.1961,12.1522,75.43,66,34,10.58,scattered clouds
28,Methoni,GR,11/17/2022 13:31,36.8197,21.7049,72.21,77,70,6.69,broken clouds
29,Bambous Virieux,MU,11/17/2022 13:39,-20.3428,57.7575,77.25,50,20,6.91,few clouds
30,Saint George,US,11/17/2022 13:36,37.1041,-113.5841,30.79,64,0,0,clear sky
31,Butaritari,KI,11/17/2022 13:36,3.0707,172.7902,81.12,75,100,16.24,overcast clouds
32,Lazaro Cardenas,MX,11/17/2022 13:31,17.9583,-102.2,76.37,80,97,3.11,overcast clouds
33,Acajutla,SV,11/17/2022 13:31,13.5928,-89.8275,81.21,66,4,5.57,clear sky
34,Tasiilaq,GL,11/17/2022 13:36,65.6145,-37.6368,37.56,87,100,13.04,overcast clouds
35,Hermanus,ZA,11/17/2022 13:36,-34.4187,19.2345,67.8,64,92,12.64,overcast clouds
36,Rio Gallegos,AR,11/17/2022 13:31,-51.6226,-69.2181,63.5,31,33,25.95,scattered clouds
37,Punta Arenas,CL,11/17/2022 13:36,-53.15,-70.9167,55.42,54,40,29.93,scattered clouds
38,San Patricio,US,11/17/2022 13:39,28.017,-97.5169,52.84,54,100,7.81,overcast clouds
39,Hithadhoo,MV,11/17/2022 13:36,-0.6,73.0833,81.63,72,19,12.08,few clouds
40,Monze,ZM,11/17/2022 13:31,-16.2833,27.4833,89.44,25,32,10.04,scattered clouds
41,Tawang,IN,11/17/2022 13:31,27.5833,91.8667,37.85,86,67,3.8,broken clouds
42,Rikitea,PF,11/17/2022 13:36,-23.1203,-134.9692,73.54,84,100,10.33,light rain
43,Poltavka,RU,11/17/2022 13:31,54.3663,71.7632,9.1,94,82,4.29,broken clouds
44,Saskylakh,RU,11/17/2022 13:39,71.9167,114.0833,-16.6,99,100,4.41,overcast clouds
45,Luderitz,NA,11/17/2022 13:39,-26.6481,15.1594,71.15,53,5,23.31,clear sky
46,Bowen,AU,11/17/2022 13:31,-20.0167,148.2333,76.78,75,83,10.56,broken clouds
47,Cape Town,ZA,11/17/2022 13:35,-33.9258,18.4232,71.11,57,20,21.85,few clouds
48,Noumea,NC,11/17/2022 13:35,-22.2763,166.4572,75.18,87,100,5.48,overcast clouds
49,Puerto Ayora,EC,11/17/2022 13:36,-0.7393,-90.3518,68.56,91,58,4,broken clouds
50,Lebu,CL,11/17/2022 13:36,-37.6167,-73.65,62.02,71,84,9.33,broken clouds
51,Kolokani,ML,11/17/2022 13:31,13.5728,-8.0339,92.23,12,100,15.03,overcast clouds
52,Okhotsk,RU,11/17/2022 13:39,59.3833,143.3,-3.39,79,0,14.14,clear sky
53,East London,ZA,11/17/2022 13:36,-33.0153,27.9116,67.14,77,75,13.8,broken clouds
54,Albany,US,11/17/2022 13:36,42.6001,-73.9662,35.67,93,89,10.51,overcast clouds
55,Red Bluff,US,11/17/2022 13:31,40.1785,-122.2358,41.52,70,0,8.05,clear sky
56,Hilo,US,11/17/2022 13:36,19.7297,-155.09,72.1,89,0,4.61,clear sky
57,Dingle,PH,11/17/2022 13:36,10.9995,122.6711,75.63,93,100,7.31,overcast clouds
58,Lukovetskiy,RU,11/17/2022 13:31,64.2956,41.9211,22.21,94,99,4.99,overcast clouds
59,Scarborough,GB,11/17/2022 13:31,54.2797,-0.4044,51.66,93,100,11.01,light rain
60,Tuatapere,NZ,11/17/2022 13:36,-46.1333,167.6833,53.26,97,100,3.13,overcast clouds
61,Cururupu,BR,11/17/2022 13:31,-1.8283,-44.8683,83.5,65,100,4.38,overcast clouds
62,Port Elizabeth,ZA,11/17/2022 13:36,-33.918,25.5701,70.32,70,0,12.66,clear sky
63,Bichena,ET,11/17/2022 13:31,10.45,38.2,65.89,33,14,4.32,few clouds
64,Dikson,RU,11/17/2022 13:36,73.5069,80.5464,3.69,94,100,25.81,light snow
65,Bundaberg,AU,11/17/2022 13:31,-24.85,152.35,64.22,78,0,1.01,clear sky
66,Otaki,NZ,11/17/2022 13:31,-40.7583,175.15,58.95,93,88,5.17,overcast clouds
67,Pyshchug,RU,11/17/2022 13:31,58.8873,45.7134,18.46,71,10,7.81,clear sky
68,Castro,BR,11/17/2022 13:36,-24.7911,-50.0119,71.08,42,0,6.78,clear sky
69,Jalu,LY,11/17/2022 13:31,29.0331,21.5482,79.72,16,0,11.48,clear sky
70,Pisco,PE,11/17/2022 13:39,-13.7,-76.2167,65.01,82,74,2.3,broken clouds
71,Haines Junction,CA,11/17/2022 13:36,60.7522,-137.5108,12.15,85,100,2.3,overcast clouds
72,Dukat,RU,11/17/2022 13:31,62.55,155.55,-22.54,97,98,2.1,overcast clouds
73,Tarauaca,BR,11/17/2022 13:31,-8.1614,-70.7656,85.48,63,100,2.8,overcast clouds
74,Arraial Do Cabo,BR,11/17/2022 13:36,-22.9661,-42.0278,78.76,61,40,11.5,scattered clouds
75,Hobart,AU,11/17/2022 13:35,-42.8794,147.3294,49.86,89,14,0,few clouds
76,Swift Current,CA,11/17/2022 13:31,50.2834,-107.8014,9.41,85,75,19.57,broken clouds
77,Kapaa,US,11/17/2022 13:36,22.0752,-159.319,73.72,83,20,12.66,few clouds
78,Geraldton,AU,11/17/2022 13:36,-28.7667,114.6,63.01,67,100,13.8,overcast clouds
79,Thompson,CA,11/17/2022 13:39,55.7435,-97.8558,3.36,78,75,10.36,broken clouds
80,Yongan,CN,11/17/2022 13:31,39.6957,113.6871,41.94,47,38,5.5,scattered clouds
81,Fortuna,US,11/17/2022 13:39,40.5982,-124.1573,39.54,100,0,6.91,clear sky
82,Sitka,US,11/17/2022 13:39,57.0531,-135.33,40.89,75,0,8.05,clear sky
83,Fairbanks,US,11/17/2022 13:31,64.8378,-147.7164,10.6,85,0,0,clear sky
84,Mar Del Plata,AR,11/17/2022 13:36,-38.0023,-57.5575,71.83,76,0,12.66,clear sky
85,Cidreira,BR,11/17/2022 13:36,-30.1811,-50.2056,73.8,53,29,6.67,scattered clouds
86,Krasnoselkup,RU,11/17/2022 13:39,65.7,82.4667,2.44,96,100,17.2,light snow
87,Aranos,NA,11/17/2022 13:30,-24.1333,19.1167,95.67,11,12,6.08,few clouds
88,Kangavar,IR,11/17/2022 13:31,34.5043,47.9653,53.15,63,100,7.23,light rain
89,Ketou,BJ,11/17/2022 13:31,7.3633,2.5998,95.07,30,13,1.5,few clouds
90,Matara,LK,11/17/2022 13:30,5.9485,80.5353,77.67,83,100,3.83,overcast clouds
91,Kuytun,RU,11/17/2022 13:39,54.3419,101.5036,24.39,57,100,16.28,overcast clouds
92,Port Alfred,ZA,11/17/2022 13:36,-33.5906,26.891,67.17,84,100,5.99,overcast clouds
93,Lorengau,PG,11/17/2022 13:36,-2.0226,147.2712,81.12,70,100,5.79,overcast clouds
94,Ribeira Grande,PT,11/17/2022 13:39,38.5167,-28.7,64.8,59,40,12.66,scattered clouds
95,Tuktoyaktuk,CA,11/17/2022 13:36,69.4541,-133.0374,17.15,72,19,12.08,few clouds
96,Yumbe,UG,11/17/2022 13:31,3.4651,31.2469,76.21,76,70,3.47,light rain
97,Yazman,PK,11/17/2022 13:31,29.1212,71.7446,74.3,25,0,7.18,clear sky
98,Vaini,TO,11/17/2022 13:36,-21.2,-175.2,71.76,94,20,3.44,few clouds
99,Souillac,MU,11/17/2022 13:39,-20.5167,57.5167,77.38,50,20,6.91,few clouds
100,Bure,ET,11/17/2022 13:31,10.7,37.0667,65.55,67,75,4.65,broken clouds
101,Upernavik,GL,11/17/2022 13:36,72.7868,-56.1549,9.63,84,100,11.32,overcast clouds
102,Lavrentiya,RU,11/17/2022 13:36,65.5833,-171,35.35,97,100,25.3,light rain
103,Villa Sandino,NI,11/17/2022 13:31,12.0483,-84.9936,74.57,87,42,12.86,scattered clouds
104,Deolali,IN,11/17/2022 13:31,19.95,73.8333,70.32,39,0,6.51,clear sky
105,Constitucion,CL,11/17/2022 13:39,-35.3333,-72.4167,66.61,65,3,10.18,clear sky
106,Qaanaaq,GL,11/17/2022 13:36,77.484,-69.3632,-15.75,76,18,8.14,few clouds
107,Oranjemund,NA,11/17/2022 13:39,-28.55,16.4333,66.7,60,11,19.15,few clouds
108,Gananoque,CA,11/17/2022 13:31,44.3334,-76.1661,31.96,80,100,6.64,overcast clouds
109,Ruteng,ID,11/17/2022 13:31,-8.6136,120.4721,65.17,94,93,1.81,overcast clouds
110,Goderich,CA,11/17/2022 13:36,43.7501,-81.7165,33.91,64,100,18.41,overcast clouds
111,Jabinyanah,TN,11/17/2022 13:36,35.035,10.9081,80.4,47,29,9.17,scattered clouds
112,Katsuura,JP,11/17/2022 13:36,35.1333,140.3,58.78,68,100,10.94,overcast clouds
113,Billings,US,11/17/2022 13:31,45.7833,-108.5007,19.17,67,40,24.16,scattered clouds
114,Shu,KZ,11/17/2022 13:31,43.5983,73.7614,30.16,75,93,5.7,overcast clouds
115,Kushiro,JP,11/17/2022 13:27,42.975,144.3747,33.87,83,13,7.23,few clouds
116,Maua,BR,11/17/2022 13:39,-23.6678,-46.4614,75.43,34,0,9.28,clear sky
117,Araouane,ML,11/17/2022 13:31,18.9048,-3.5265,84.79,9,98,8.99,overcast clouds
118,Dembi Dolo,ET,11/17/2022 13:31,8.5333,34.8,68.04,70,47,2.62,scattered clouds
119,Shetpe,KZ,11/17/2022 13:36,44.1667,52.1167,48.78,57,100,8.75,overcast clouds
120,Temir,KZ,11/17/2022 13:31,49.1414,57.13,30.07,78,100,17.43,overcast clouds
121,Tres Picos,MX,11/17/2022 13:31,15.8667,-93.5333,79.88,70,21,6.89,few clouds
122,Arica,CL,11/17/2022 13:31,-18.475,-70.3042,67.55,63,0,6.91,clear sky
123,Port Blair,IN,11/17/2022 13:36,11.6667,92.75,78.84,89,40,2.3,mist
124,Barrow,US,11/17/2022 13:36,71.2906,-156.7887,32.02,80,100,6.91,overcast clouds
125,Olafsvik,IS,11/17/2022 13:36,64.8945,-23.7142,46.58,82,94,30.42,overcast clouds
126,Whitehorse,CA,11/17/2022 13:36,60.7161,-135.0538,14.77,92,100,11.5,overcast clouds
127,Sola,VU,11/17/2022 13:39,-13.8833,167.55,81.61,71,6,5.84,clear sky
128,Torbay,CA,11/17/2022 13:39,47.6666,-52.7314,47.75,97,100,29.93,moderate rain
129,Nyaunglebin,MM,11/17/2022 13:31,17.95,96.7333,76.37,83,30,4.63,scattered clouds
130,Hambantota,LK,11/17/2022 13:36,6.1241,81.1185,80.94,89,75,3.44,broken clouds
131,Takoradi,GH,11/17/2022 13:39,4.8845,-1.7554,83.44,66,14,9.51,few clouds
132,Bathsheba,BB,11/17/2022 13:36,13.2167,-59.5167,86.61,70,20,19.57,few clouds
133,Mount Isa,AU,11/17/2022 13:36,-20.7333,139.5,80.37,28,100,5.75,overcast clouds
134,Brae,GB,11/17/2022 13:39,60.3964,-1.353,46.33,73,100,32.79,overcast clouds
135,Guerrero Negro,MX,11/17/2022 13:39,27.9769,-114.0611,55.81,52,0,0.63,clear sky
136,Price,US,11/17/2022 13:31,39.5994,-110.8107,16.86,67,0,3.44,clear sky
137,Atar,MR,11/17/2022 13:31,20.5169,-13.0499,91.29,12,0,8.95,clear sky
138,Victoria,HK,11/17/2022 13:33,22.2855,114.1577,78.19,84,4,5.01,clear sky
139,Kruisfontein,ZA,11/17/2022 13:36,-34.0033,24.7314,66.88,59,100,12.39,overcast clouds
140,Matay,EG,11/17/2022 13:31,28.419,30.7792,74.93,35,14,8.95,few clouds
141,Safford,US,11/17/2022 13:31,32.834,-109.7076,38.32,56,0,8.05,clear sky
142,Russell,US,11/17/2022 13:39,32.3502,-85.1999,40.28,100,0,0,clear sky
143,Half Moon Bay,US,11/17/2022 13:36,37.4636,-122.4286,54.63,76,0,3.44,clear sky
144,Bengkulu,ID,11/17/2022 13:39,-3.8004,102.2655,76.84,87,100,9.35,overcast clouds
145,Coquimbo,CL,11/17/2022 13:39,-29.9533,-71.3436,60.53,88,100,4.61,overcast clouds
146,Bluff,NZ,11/17/2022 13:36,-46.6,168.3333,51.64,94,100,12.64,light rain
147,Qasigiannguit,GL,11/17/2022 13:31,68.8193,-51.1922,19.65,88,100,3.27,overcast clouds
148,Nikolskoye,RU,11/17/2022 13:36,59.7035,30.7861,33.69,70,99,9.89,overcast clouds
149,Ulyanovsk,RU,11/17/2022 13:31,54,48,29.39,90,100,14.16,light snow
150,Chiang Khong,TH,11/17/2022 13:31,20.2613,100.4046,69.78,99,12,1.59,few clouds
151,Sabha,LY,11/17/2022 13:39,27.0377,14.4283,76.32,17,0,5.95,clear sky
152,Chuy,UY,11/17/2022 13:36,-33.6971,-53.4616,78.66,39,46,2.17,scattered clouds
153,Pevek,RU,11/17/2022 13:36,69.7008,170.3133,-4.11,97,100,3.96,overcast clouds
154,Kommunar,RU,11/17/2022 13:31,59.6206,30.39,33.33,72,94,10.6,overcast clouds
155,Mecca,SA,11/17/2022 13:27,21.4267,39.8261,89.26,35,5,16.04,clear sky
156,Arlit,NE,11/17/2022 13:36,18.7369,7.3853,83.93,10,0,1.97,clear sky
157,Vagay,RU,11/17/2022 13:31,57.9375,69.0217,-6.05,96,5,0.36,clear sky
158,Hofn,IS,11/17/2022 13:36,64.2539,-15.2082,48.22,87,100,25.32,overcast clouds
159,Dondo,MZ,11/17/2022 13:31,-19.6094,34.7431,85.51,54,0,8.37,clear sky
160,Port Lincoln,AU,11/17/2022 13:36,-34.7333,135.8667,62.67,73,100,18.52,overcast clouds
161,La Florida,CO,11/17/2022 13:31,1.2985,-77.4061,60.93,75,100,4.43,overcast clouds
162,Georgetown,MY,11/17/2022 13:36,5.4112,100.3354,84.13,86,20,9.22,light rain
163,Bonthe,SL,11/17/2022 13:31,7.5264,-12.505,87.42,56,37,7.47,scattered clouds
164,Tiarei,PF,11/17/2022 13:31,-17.5333,-149.3333,75.22,80,51,5.82,broken clouds
165,Cerritos,US,11/17/2022 13:31,33.8583,-118.0648,63.21,30,0,3.44,clear sky
166,Lagunas,PE,11/17/2022 13:31,-5.2269,-75.6753,84.47,57,85,1.5,overcast clouds
167,Mae Sai,TH,11/17/2022 13:30,20.4335,99.8762,69.35,98,14,2.46,few clouds
168,Muroto,JP,11/17/2022 13:31,33.2833,134.15,61.84,60,100,6.64,overcast clouds
169,Narsaq,GL,11/17/2022 13:39,60.9167,-46.05,17.82,82,37,5.14,scattered clouds
170,Balkhash,KZ,11/17/2022 13:39,46.844,74.9804,27.1,63,63,3.04,broken clouds
171,Kenai,US,11/17/2022 13:36,60.5544,-151.2583,32.14,72,40,6.91,scattered clouds
172,Mahina,PF,11/17/2022 13:31,-17.5065,-149.489,74.97,83,75,1.14,broken clouds
173,Floriano,BR,11/17/2022 13:31,-6.7669,-43.0225,96.48,31,4,4.83,clear sky
174,Vestmannaeyjar,IS,11/17/2022 13:39,63.4427,-20.2734,49.19,87,40,18.41,scattered clouds
175,Felanitx,ES,11/17/2022 13:39,39.4696,3.1483,74.14,64,82,21.52,broken clouds
176,Cabra,ES,11/17/2022 13:31,37.4725,-4.4421,64.96,66,72,15.39,broken clouds
177,Lodja,CD,11/17/2022 13:39,-3.4833,23.4333,83.17,65,90,2.44,light rain
178,Kodiak,US,11/17/2022 13:39,57.79,-152.4072,44.11,93,100,18.41,overcast clouds
179,Jati,PK,11/17/2022 13:39,24.3539,68.2671,82.22,47,15,11.63,few clouds
180,Meulaboh,ID,11/17/2022 13:36,4.1363,96.1285,77.16,83,98,1.97,overcast clouds
181,Ixtapa,MX,11/17/2022 13:39,20.7,-105.2,69.22,94,0,0,clear sky
182,Smidovich,RU,11/17/2022 13:31,48.6,133.8167,22.87,89,100,4.7,overcast clouds
183,Dekar,BW,11/17/2022 13:31,-21.5333,21.9333,93.79,15,4,9.93,clear sky
184,Lompoc,US,11/17/2022 13:36,34.6391,-120.4579,48.58,75,0,6.91,clear sky
185,Kavieng,PG,11/17/2022 13:36,-2.5744,150.7967,81.77,77,100,11.39,overcast clouds
186,Fort Nelson,CA,11/17/2022 13:36,58.8053,-122.7002,6.39,85,20,8.05,few clouds
187,Turukhansk,RU,11/17/2022 13:31,65.8167,87.9833,-20.6,96,100,11.03,overcast clouds
188,Sheboygan,US,11/17/2022 13:31,43.7333,-87.9334,28.69,86,100,13.8,overcast clouds
189,Los Llanos De Aridane,ES,11/17/2022 13:39,28.6585,-17.9182,71.35,69,20,11.5,few clouds
190,Viedma,AR,11/17/2022 13:36,-40.8135,-62.9967,82.2,23,15,15.23,few clouds
191,Teocaltiche,MX,11/17/2022 13:31,21.4333,-102.5833,45.91,58,0,2.1,clear sky
192,Ancud,CL,11/17/2022 13:39,-41.8697,-73.8203,55.17,95,100,7.25,overcast clouds
193,Talnakh,RU,11/17/2022 13:39,69.4865,88.3972,-5.8,98,100,16.42,overcast clouds
194,Iquique,CL,11/17/2022 13:31,-20.2208,-70.1431,68.04,63,58,6.64,broken clouds
195,Saint-Augustin,CA,11/17/2022 13:31,51.226,-58.6502,28.92,96,100,28.32,snow
196,Cabo San Lucas,MX,11/17/2022 13:36,22.8909,-109.9124,73.51,75,0,9.22,clear sky
197,Broken Hill,AU,11/17/2022 13:39,-31.95,141.4333,60.66,39,47,5.66,scattered clouds
198,Cockburn Town,TC,11/17/2022 13:39,21.4612,-71.1419,82.36,69,40,9.22,scattered clouds
199,Avarua,CK,11/17/2022 13:36,-21.2078,-159.775,73.45,83,75,8.05,broken clouds
200,Ilulissat,GL,11/17/2022 13:36,69.2167,-51.1,19.42,79,100,3.44,light shower snow
201,Ilhabela,BR,11/17/2022 13:31,-23.7781,-45.3581,75.67,61,1,4.92,clear sky
202,Basna,IN,11/17/2022 13:31,21.2833,82.8167,69.03,45,46,2.93,scattered clouds
203,Faanui,PF,11/17/2022 13:36,-16.4833,-151.75,78.94,75,36,2.15,scattered clouds
204,Truth Or Consequences,US,11/17/2022 13:31,33.1284,-107.2528,26.83,68,0,8.05,clear sky
205,Victoria Point,AU,11/17/2022 13:31,-27.5833,153.3,60.76,89,0,6.17,clear sky
206,Port Hedland,AU,11/17/2022 13:39,-20.3167,118.5667,75.25,64,0,14.97,clear sky
207,Caraballeda,VE,11/17/2022 13:31,10.6112,-66.8522,84.36,77,75,3.44,broken clouds
208,Balakhta,RU,11/17/2022 13:31,55.38,91.6,22.37,64,100,14.72,overcast clouds
209,Kozhva,RU,11/17/2022 13:31,65.1073,57.0459,1.72,92,100,11.83,overcast clouds
210,Ankang,CN,11/17/2022 13:31,32.68,109.0172,56.46,69,87,3.56,overcast clouds
211,Praia Da Vitoria,PT,11/17/2022 13:31,38.7333,-27.0667,64.76,82,75,16.08,broken clouds
212,Ternate,ID,11/17/2022 13:31,0.8,127.4,81.52,77,100,5.44,overcast clouds
213,Makakilo City,US,11/17/2022 13:31,21.3469,-158.0858,73.72,78,0,8.05,clear sky
214,Bethel,US,11/17/2022 13:36,41.3712,-73.414,39.02,70,40,6.91,scattered clouds
215,Acapulco,MX,11/17/2022 13:31,16.8634,-99.8901,75.02,88,40,4.61,scattered clouds
216,Coihaique,CL,11/17/2022 13:36,-45.5752,-72.0662,58.95,72,75,3.44,broken clouds
217,Saint-Ambroise,CA,11/17/2022 13:31,48.5501,-71.3324,25.34,86,100,5.75,light snow
218,Sooke,CA,11/17/2022 13:31,48.3746,-123.7276,48.56,71,36,9.55,scattered clouds
219,Naryan-Mar,RU,11/17/2022 13:31,67.6713,53.087,23.11,91,100,25.26,overcast clouds
220,Copiapo,CL,11/17/2022 13:31,-27.3667,-70.3333,56.89,46,1,5.68,clear sky
221,Kudat,MY,11/17/2022 13:31,6.8837,116.8477,80.53,89,20,5.01,few clouds
222,Kirakira,SB,11/17/2022 13:31,-10.4544,161.9205,78.69,86,72,0.89,broken clouds
223,Hami,CN,11/17/2022 13:33,42.8,93.45,38.62,41,100,2.08,overcast clouds
224,Burdur,TR,11/17/2022 13:31,37.7203,30.2908,61.5,42,75,9.22,broken clouds
225,Kilindoni,TZ,11/17/2022 13:32,-7.9139,39.6668,81.14,71,46,11.27,scattered clouds
226,Stulovo,RU,11/17/2022 13:32,58.7225,50.1439,16.3,86,65,6.93,broken clouds
227,Mikhaylovka,RU,11/17/2022 13:32,50.06,43.2379,40.78,95,100,7.43,overcast clouds
228,Ibra,OM,11/17/2022 13:32,22.6906,58.5334,79.02,36,19,13.33,few clouds
229,Chokurdakh,RU,11/17/2022 13:36,70.6333,147.9167,-11.13,93,100,6.51,overcast clouds
230,Esperance,AU,11/17/2022 13:36,-33.8667,121.9,59.74,79,45,17.54,scattered clouds
231,Port Hardy,CA,11/17/2022 13:39,50.6996,-127.4199,30.38,100,20,3.44,few clouds
232,Yeppoon,AU,11/17/2022 13:36,-23.1333,150.7333,67.78,57,14,7,few clouds
233,Novo Aripuana,BR,11/17/2022 13:32,-5.1206,-60.3797,93.27,48,96,2.73,overcast clouds
234,Khatanga,RU,11/17/2022 13:36,71.9667,102.5,-27.42,97,100,7.23,overcast clouds
235,Acari,PE,11/17/2022 13:32,-15.4311,-74.6158,73.29,62,100,6.31,overcast clouds
236,Sur,OM,11/17/2022 13:39,22.5667,59.5289,78.51,63,2,4.7,clear sky
237,Portland,US,11/17/2022 13:30,45.5234,-122.6762,39.18,68,0,20.71,clear sky
238,Kimberley,ZA,11/17/2022 13:32,-28.7323,24.7623,91.09,13,0,4.61,clear sky
239,Polovinnoye,RU,11/17/2022 13:32,54.7914,65.9864,8.22,88,29,3.06,scattered clouds
240,Lebowakgomo,ZA,11/17/2022 13:32,-24.2,29.5,86.9,24,13,9.53,few clouds
241,Hanzhong,CN,11/17/2022 13:27,33.0728,107.0303,55.09,71,64,1.72,broken clouds
242,Padampur,IN,11/17/2022 13:32,29.6833,73.6167,70.21,22,0,2.06,clear sky
243,Nyurba,RU,11/17/2022 13:32,63.2842,118.3319,-0.22,99,100,2.82,overcast clouds
244,Svetlyy,RU,11/17/2022 13:32,54.675,20.1347,33.85,60,0,8.48,clear sky
245,Mafinga,TZ,11/17/2022 13:32,-7.25,35.0667,82.04,38,100,8.63,overcast clouds
246,West Wendover,US,11/17/2022 13:32,40.7391,-114.0733,18.61,79,0,0,clear sky
247,Hasaki,JP,11/17/2022 13:31,35.7333,140.8333,54.28,55,100,13.91,overcast clouds
248,Christchurch,NZ,11/17/2022 13:30,-43.5333,172.6333,58.91,89,100,4.61,light rain
249,Rocha,UY,11/17/2022 13:32,-34.4833,-54.3333,81.68,40,98,3.53,overcast clouds
250,Beringovskiy,RU,11/17/2022 13:39,63.05,179.3167,28,96,100,14.88,snow
251,Carnarvon,AU,11/17/2022 13:33,-24.8667,113.6333,66.72,60,78,16.58,broken clouds
252,Aklavik,CA,11/17/2022 13:36,68.2191,-135.0107,7.57,79,59,5.06,broken clouds
253,Upata,VE,11/17/2022 13:32,8.0086,-62.3989,79.2,71,71,4.54,broken clouds
254,Ghanzi,BW,11/17/2022 13:32,-21.5667,21.7833,93.79,15,3,10.56,clear sky
255,Clyde River,CA,11/17/2022 13:32,70.4692,-68.5914,-0.17,78,100,16.11,light snow
256,Provideniya,RU,11/17/2022 13:36,64.3833,-173.3,34.77,99,100,8.93,snow
257,Pulau Sebang,MY,11/17/2022 13:29,2.455,102.2329,82.02,90,88,1.81,overcast clouds
258,Netivot,IL,11/17/2022 13:32,31.4222,34.5886,68.59,55,4,8.75,clear sky
259,Altay,CN,11/17/2022 13:32,47.8667,88.1167,19.53,63,95,3.38,overcast clouds
260,Kimbe,PG,11/17/2022 13:39,-5.5502,150.1429,76.39,94,86,3.4,overcast clouds
261,Yar-Sale,RU,11/17/2022 13:39,66.8333,70.8333,11.19,83,100,24.47,overcast clouds
262,Sorland,NO,11/17/2022 13:36,67.667,12.6934,46.26,58,11,12.19,few clouds
263,Sao Gabriel Da Cachoeira,BR,11/17/2022 13:32,-0.1303,-67.0892,75,94,100,2.3,light rain
264,Tessalit,ML,11/17/2022 13:36,20.1986,1.0114,84.31,10,28,8.41,scattered clouds
265,Lagoa,PT,11/17/2022 13:36,39.05,-27.9833,60.28,59,95,14.92,overcast clouds
266,Mastic Beach,US,11/17/2022 13:32,40.7668,-72.8521,42.13,69,75,11.99,broken clouds
267,Pilar,BR,11/17/2022 13:32,-9.5972,-35.9567,84.13,53,68,9.51,broken clouds
268,Sorong,ID,11/17/2022 13:32,-0.8833,131.25,81.14,80,100,1.74,overcast clouds
269,Zambezi,ZM,11/17/2022 13:32,-13.5432,23.1047,85.14,43,85,3.11,overcast clouds
270,Boende,CD,11/17/2022 13:32,-0.2167,20.8667,76.1,86,80,1.86,light rain
271,Caravelas,BR,11/17/2022 13:32,-17.7125,-39.2481,74.93,89,100,1.74,overcast clouds
272,Lamu,KE,11/17/2022 13:36,-2.2717,40.902,80.82,79,100,5.26,overcast clouds
273,Nome,US,11/17/2022 13:36,64.5011,-165.4064,35.17,92,100,13.73,overcast clouds
274,Ostrovnoy,RU,11/17/2022 13:36,68.0531,39.5131,33.55,86,100,15.64,overcast clouds
275,Gondal,IN,11/17/2022 13:32,21.9667,70.8,84.18,26,0,8.77,clear sky
276,Allapalli,IN,11/17/2022 13:32,19.4167,80.0667,66.94,59,99,3.44,overcast clouds
277,Borkop,DK,11/17/2022 13:32,55.6379,9.6482,43.92,70,8,10,clear sky
278,Ilinskiy,RU,11/17/2022 13:32,55.619,38.1182,27.37,74,40,7,scattered clouds
279,Ca Mau,VN,11/17/2022 13:29,9.1769,105.15,77.22,94,21,4.29,few clouds
280,Kuryk,KZ,11/17/2022 13:32,43.2,51.65,52.66,75,94,9.22,overcast clouds
281,Morrope,PE,11/17/2022 13:36,-6.5417,-80.0111,64.51,70,99,6.58,overcast clouds
282,Flinders,AU,11/17/2022 13:36,-34.5833,150.8552,56.37,76,70,10,broken clouds
283,Estrela,BR,11/17/2022 13:32,-28.0611,-50.9383,73.02,32,1,4.5,clear sky
284,Korla,CN,11/17/2022 13:27,41.7597,86.1469,38.84,36,7,2.33,clear sky
285,Strezhevoy,RU,11/17/2022 13:32,60.7333,77.5889,-7.4,97,40,6.58,scattered clouds
286,Straumen,NO,11/17/2022 13:32,63.8709,11.2999,33.8,52,2,4.88,clear sky
287,Grand Gaube,MU,11/17/2022 13:32,-20.0064,57.6608,77.4,52,78,1.99,broken clouds
288,Murgab,TM,11/17/2022 13:32,37.4966,61.9714,65.8,24,100,8.28,overcast clouds
289,Oga,IT,11/17/2022 13:32,46.4631,10.347,46.94,88,96,3.83,overcast clouds
290,Sisimiut,GL,11/17/2022 13:32,66.9395,-53.6735,21.97,92,100,16.62,light snow
291,Montepuez,MZ,11/17/2022 13:32,-13.1256,38.9997,86.45,40,92,3.53,overcast clouds
292,Cherskiy,RU,11/17/2022 13:37,68.75,161.3,-3.08,98,100,8.03,overcast clouds
293,La Rioja,ES,11/17/2022 13:32,42.25,-2.5,64.18,47,0,13.4,clear sky
294,Port Augusta,AU,11/17/2022 13:32,-32.5,137.7667,66.34,32,65,10.47,broken clouds
295,Maniitsoq,GL,11/17/2022 13:32,65.4167,-52.9,23.04,66,100,2.89,overcast clouds
296,Uberlandia,BR,11/17/2022 13:32,-18.9186,-48.2772,78.01,61,0,9.22,clear sky
297,Tukrah,LY,11/17/2022 13:40,32.5341,20.5791,74.32,49,1,18.32,clear sky
298,Namatanai,PG,11/17/2022 13:40,-3.6667,152.4333,80.29,77,100,6.76,overcast clouds
299,Leningradskiy,RU,11/17/2022 13:37,69.3833,178.4167,9.32,94,100,5.7,overcast clouds
300,Gidole,ET,11/17/2022 13:32,5.65,37.3667,73.35,29,58,5.53,broken clouds
301,Isangel,VU,11/17/2022 13:37,-19.55,169.2667,78.01,86,71,7.85,broken clouds
302,La Ligua,CL,11/17/2022 13:32,-32.4524,-71.2311,72.97,52,99,5.86,overcast clouds
303,Naze,JP,11/17/2022 13:37,28.3667,129.4833,68.92,90,97,15.79,overcast clouds
304,Whitefish,US,11/17/2022 13:32,48.4111,-114.3376,15.55,57,0,5.75,clear sky
305,Bohmte,DE,11/17/2022 13:32,52.3667,8.3167,47.14,92,100,8.5,light rain
306,Vila Franca Do Campo,PT,11/17/2022 13:37,37.7167,-25.4333,64.81,68,100,14.05,overcast clouds
307,San Quintin,MX,11/17/2022 13:37,30.4833,-115.95,56.52,29,5,1.45,clear sky
308,Gamba,GA,11/17/2022 13:32,-2.65,10,75.52,84,99,7.54,overcast clouds
309,Radovan,RO,11/17/2022 13:32,44.1667,23.6167,58.21,56,57,18.07,broken clouds
310,Campo Gobierno,MX,11/17/2022 13:32,24.6536,-107.5411,61.05,88,0,0,clear sky
311,Margate,GB,11/17/2022 13:40,51.3813,1.3862,55.9,80,100,4,overcast clouds
312,Oeiras Do Para,BR,11/17/2022 13:32,-2.0031,-49.8544,94.12,43,72,3.78,broken clouds
313,Mehamn,NO,11/17/2022 13:32,71.0357,27.8492,40.95,93,75,6.91,drizzle
314,Mabaruma,GY,11/17/2022 13:37,8.2,-59.7833,83.55,77,62,1.77,broken clouds
315,Longyearbyen,SJ,11/17/2022 13:37,78.2186,15.6401,21.04,68,40,10.36,scattered clouds
316,Georgiyevka,KZ,11/17/2022 13:32,43.0369,74.7114,30.24,86,0,4.47,clear sky
317,Paamiut,GL,11/17/2022 13:32,61.994,-49.6678,9.95,74,8,6.62,clear sky
318,Ruwi,OM,11/17/2022 13:32,23.5996,58.5507,82.09,59,35,10.27,scattered clouds
319,Kahului,US,11/17/2022 13:37,20.8947,-156.47,76.84,83,0,5.01,clear sky
320,Merauke,ID,11/17/2022 13:32,-8.4667,140.3333,80.37,86,100,4.34,overcast clouds
321,Hatillo,PR,11/17/2022 13:32,18.4863,-66.8254,85.19,80,46,4,scattered clouds
322,Soe,ID,11/17/2022 13:32,-9.8607,124.284,70.59,89,100,2.66,overcast clouds
323,Henties Bay,NA,11/17/2022 13:37,-22.116,14.2845,65.86,73,68,13.98,broken clouds
324,Sivaki,RU,11/17/2022 13:32,52.6333,126.75,20.53,96,100,4.76,light snow
325,Samarai,PG,11/17/2022 13:37,-10.6167,150.6667,83.26,79,98,11.88,overcast clouds
326,Bubaque,GW,11/17/2022 13:32,11.2833,-15.8333,82.18,67,30,4.79,scattered clouds
327,Ornes,NO,11/17/2022 13:32,66.8689,13.7078,45.43,29,11,8.19,few clouds
328,Severo-Kurilsk,RU,11/17/2022 13:37,50.6789,156.125,32.61,66,100,5.64,overcast clouds
329,Pangnirtung,CA,11/17/2022 13:37,66.1451,-65.7125,-4.16,96,93,3.87,overcast clouds
330,Palana,RU,11/17/2022 13:32,59.1167,159.9667,16.45,84,98,12.62,overcast clouds
331,Huarmey,PE,11/17/2022 13:32,-10.0681,-78.1522,67.19,80,67,7.67,broken clouds
332,Kavaratti,IN,11/17/2022 13:40,10.5669,72.642,82.87,69,5,4.56,clear sky
333,Tabas,IR,11/17/2022 13:37,33.5959,56.9244,71.87,23,100,4.32,overcast clouds
334,Bairiki,KI,11/17/2022 13:37,1.3292,172.9752,80.6,83,75,11.5,broken clouds
335,Teguldet,RU,11/17/2022 13:32,57.3064,88.1667,7.95,92,99,5.01,overcast clouds
336,Denizli,TR,11/17/2022 13:32,37.8402,29.0698,62.92,60,96,6.67,overcast clouds
337,Mahebourg,MU,11/17/2022 13:37,-20.4081,57.7,77.29,50,20,6.91,few clouds
338,Karratha,AU,11/17/2022 13:37,-20.7377,116.8463,73.51,63,0,21.09,clear sky
339,Tongren,CN,11/17/2022 13:32,27.7172,109.1853,57.16,82,100,3.89,overcast clouds
340,Rongcheng,CN,11/17/2022 13:32,30.634,117.8517,57.72,88,100,3.18,overcast clouds
341,Abu Samrah,SY,11/17/2022 13:37,35.3029,37.1841,63.77,58,51,10.56,broken clouds
342,Tazovskiy,RU,11/17/2022 13:40,67.4667,78.7,9.5,88,100,20.27,overcast clouds
343,Palmer,US,11/17/2022 13:37,42.1584,-72.3287,38.25,83,75,1.01,broken clouds
344,Clearlake,US,11/17/2022 13:32,38.9582,-122.6264,46.17,47,100,1.81,overcast clouds
345,Padang,ID,11/17/2022 13:37,-0.9492,100.3543,77.05,85,100,4.7,light rain
346,Miandrivazo,MG,11/17/2022 13:32,-19.5167,45.4667,86,54,64,13.65,broken clouds
347,Mogzon,RU,11/17/2022 13:32,51.7435,111.9606,19.02,93,33,2.62,scattered clouds
348,Cedar Lake,US,11/17/2022 13:32,41.3648,-87.4411,28.83,86,95,11.77,overcast clouds
349,Norman Wells,CA,11/17/2022 13:37,65.282,-126.8329,-3.96,84,20,3.44,few clouds
350,Qaqortoq,GL,11/17/2022 13:37,60.7167,-46.0333,9.3,85,10,4.21,clear sky
351,Vila Velha,BR,11/17/2022 13:36,-20.3297,-40.2925,78.75,77,75,21.99,broken clouds
352,Puerto Baquerizo Moreno,EC,11/17/2022 13:40,-0.9,-89.6,71.08,73,98,9.33,overcast clouds
353,Iqaluit,CA,11/17/2022 13:37,63.7506,-68.5145,10.13,79,100,3.44,light snow
354,Luanda,AO,11/17/2022 13:32,-8.8368,13.2343,79.93,67,38,10.85,scattered clouds
355,Lehigh Acres,US,11/17/2022 13:32,26.6254,-81.6248,63.99,86,75,11.5,broken clouds
356,Mill Valley,US,11/17/2022 13:32,37.906,-122.545,53.22,72,100,5.12,overcast clouds
357,Ajaccio,FR,11/17/2022 13:32,42,8.9167,64.38,64,75,3.44,broken clouds
358,Komsomolskiy,UZ,11/17/2022 13:37,40.4272,71.7189,45.32,65,100,2.3,overcast clouds
359,Shingu,JP,11/17/2022 13:30,33.7333,135.9833,52.72,67,100,6.15,overcast clouds
360,Mount Gambier,AU,11/17/2022 13:37,-37.8333,140.7667,45.3,95,1,5.79,clear sky
361,Santa Cruz,BO,11/17/2022 13:32,-17.8,-63.1667,87.85,42,20,12.66,few clouds
362,Codrington,AU,11/17/2022 13:37,-38.2667,141.9667,44.82,93,0,8.16,clear sky
363,Bereda,ES,11/17/2022 13:32,43.2686,-7.5406,58.14,87,67,8.12,light rain
364,San Andres,CO,11/17/2022 13:32,12.5847,-81.7006,84.22,79,40,8.05,scattered clouds
365,Mocuba,MZ,11/17/2022 13:32,-16.8392,36.9856,95.22,29,1,9.86,clear sky
366,Alta Floresta,BR,11/17/2022 13:37,-9.8756,-56.0861,92.05,45,48,3.04,scattered clouds
367,Nadvoitsy,RU,11/17/2022 13:32,63.8667,34.3167,26.87,89,34,2.42,scattered clouds
368,Salvador,SV,11/17/2022 13:31,13.8333,-88.9167,75.06,82,12,3.78,few clouds
369,Ulaangom,MN,11/17/2022 13:32,49.9811,92.0667,18.54,73,41,2.28,scattered clouds
370,Farnham,GB,11/17/2022 13:32,51.2143,-0.7959,55.04,70,20,17.27,few clouds
371,Gillette,US,11/17/2022 13:32,44.2911,-105.5022,15.06,83,100,20.71,overcast clouds
372,Mandurah,AU,11/17/2022 13:31,-32.55,115.7,61.88,68,96,13.24,overcast clouds
373,Carmo Do Paranaiba,BR,11/17/2022 13:32,-19.0008,-46.3161,77.07,56,40,6.24,scattered clouds
374,Salinopolis,BR,11/17/2022 13:32,-0.6136,-47.3561,84.02,66,85,8.39,overcast clouds
375,Los Andes,CL,11/17/2022 13:32,-32.8337,-70.5983,75,46,98,3.44,overcast clouds
376,Vao,NC,11/17/2022 13:40,-22.6667,167.4833,74.98,86,78,10.6,broken clouds
377,Rokytne,UA,11/17/2022 13:32,51.2796,27.214,31.23,72,95,6.58,overcast clouds
378,Bokoro,TD,11/17/2022 13:32,12.3807,17.0568,94.33,14,0,7.4,clear sky
379,Aguas Vermelhas,BR,11/17/2022 13:32,-15.7472,-41.46,75.96,71,89,3.15,overcast clouds
380,Saint-Georges,GD,11/17/2022 13:32,12.0564,-61.7485,78.48,89,75,23.02,broken clouds
381,Ingham,US,11/17/2022 13:40,42.6,-84.3833,28.9,94,52,6.73,light snow
382,Srivardhan,IN,11/17/2022 13:32,18.0333,73.0167,77.27,68,0,8.88,clear sky
383,Matagami,CA,11/17/2022 13:32,49.7502,-77.6328,15.91,92,100,9.22,overcast clouds
384,Yatou,CN,11/17/2022 13:32,37.15,122.3833,52.05,72,0,6.76,clear sky
385,Odweyne,SO,11/17/2022 13:32,9.4092,45.064,79.79,36,11,16.49,few clouds
386,Murray Bridge,AU,11/17/2022 13:33,-35.1167,139.2667,58.33,51,47,6.93,scattered clouds
387,Bambanglipuro,ID,11/17/2022 13:32,-7.95,110.2833,75.61,96,100,7.43,light rain
388,Dzhebariki-Khaya,RU,11/17/2022 13:32,62.2167,135.8,-38.24,97,34,1.05,scattered clouds
389,Walvis Bay,NA,11/17/2022 13:40,-22.9575,14.5053,64.09,58,100,20.29,overcast clouds
390,Necochea,AR,11/17/2022 13:40,-38.5473,-58.7368,71.13,53,6,10.92,clear sky
391,Anahuac,MX,11/17/2022 13:32,27.2333,-100.15,49.93,51,100,4.45,overcast clouds
392,Juneau,US,11/17/2022 13:31,58.3019,-134.4197,34.21,93,40,0,fog
393,Petropavlovsk-Kamchatskiy,RU,11/17/2022 13:32,53.0452,158.6483,14.59,67,20,8.95,few clouds
394,Hovd,MN,11/17/2022 13:32,48.0056,91.6419,26.35,27,100,6.42,overcast clouds
395,Taksimo,RU,11/17/2022 13:32,56.3444,114.8794,9.01,91,98,1.74,overcast clouds
396,Ocampo,MX,11/17/2022 13:32,21.65,-101.5,47.39,87,1,5.91,clear sky
397,Bandarbeyla,SO,11/17/2022 13:32,9.4942,50.8122,79.27,67,1,15.28,clear sky
398,Baijiantan,CN,11/17/2022 13:32,45.6333,85.1833,34.99,55,100,5.37,overcast clouds
399,Nouadhibou,MR,11/17/2022 13:37,20.931,-17.0347,89.58,25,4,8.05,clear sky
400,Port Moresby,PG,11/17/2022 13:30,-9.4431,147.1797,80.02,83,40,3.44,scattered clouds
401,Comodoro Rivadavia,AR,11/17/2022 13:37,-45.8667,-67.5,73.26,31,0,24.16,clear sky
402,La Crosse,US,11/17/2022 13:32,43.8014,-91.2396,25.39,85,100,8.05,overcast clouds
403,Klaksvik,FO,11/17/2022 13:37,62.2266,-6.589,49.12,86,100,41,overcast clouds
404,Kodinsk,RU,11/17/2022 13:32,58.6881,99.1844,16.23,96,100,3.49,overcast clouds
405,Dunmore Town,BS,11/17/2022 13:32,25.5,-76.65,79.34,73,7,5.35,clear sky
406,Abancay,PE,11/17/2022 13:32,-13.6339,-72.8814,67.73,57,95,4.12,overcast clouds
407,Dhankuta,NP,11/17/2022 13:29,26.9833,87.3333,54.14,81,8,1.41,clear sky
408,Vostok,RU,11/17/2022 13:37,46.4856,135.8833,14.74,95,99,4.47,overcast clouds
409,Taoudenni,ML,11/17/2022 13:40,22.6783,-3.9836,86.74,9,0,9.22,clear sky
410,Sao Luiz Gonzaga,BR,11/17/2022 13:32,-28.4083,-54.9608,83.16,28,2,9.78,clear sky
411,Baie-Saint-Paul,CA,11/17/2022 13:32,47.4411,-70.4986,33.06,90,100,5.59,overcast clouds
412,Broome,US,11/17/2022 13:37,42.2506,-75.833,34.9,89,100,11.5,overcast clouds
413,Nizhniy Kuranakh,RU,11/17/2022 13:37,58.8353,125.4869,17.82,95,100,4.99,light snow
414,Pangai,TO,11/17/2022 13:32,-19.8,-174.35,77.02,78,0,9.69,clear sky
415,Alofi,NU,11/17/2022 13:37,-19.0595,-169.9187,69.69,100,8,1.14,clear sky
416,Tonj,SS,11/17/2022 13:32,7.2737,28.6822,95.85,19,100,6.8,overcast clouds
417,San Cristobal,VE,11/17/2022 13:37,7.7669,-72.225,69.98,74,97,4.05,overcast clouds
418,Poum,NC,11/17/2022 13:37,-20.2333,164.0167,78.08,81,77,11.23,broken clouds
419,Moose Factory,CA,11/17/2022 13:37,51.2585,-80.6094,14,79,100,8.05,overcast clouds
420,Cap Malheureux,MU,11/17/2022 13:37,-19.9842,57.6142,75.47,53,64,5.01,broken clouds
421,Shahe,CN,11/17/2022 13:32,39.2708,113.5478,42.46,49,24,3.62,few clouds
422,The Valley,AI,11/17/2022 13:37,18.217,-63.0578,83.82,78,40,13.8,scattered clouds
423,Umba,RU,11/17/2022 13:40,66.6871,34.3429,30.36,93,37,7.99,scattered clouds
424,Nicoya,CR,11/17/2022 13:32,10.1483,-85.452,78.55,80,28,5.37,scattered clouds
425,Dalbandin,PK,11/17/2022 13:32,28.8947,64.4101,65.19,14,18,6.13,few clouds
426,Ebolowa,CM,11/17/2022 13:32,2.9,11.15,77.5,82,65,2.28,moderate rain
427,Vardo,NO,11/17/2022 13:37,70.3705,31.1107,40.98,87,75,12.66,broken clouds
428,Sutysky,UA,11/17/2022 13:32,49.0425,28.4173,32.7,99,100,10.22,snow
429,Erenhot,CN,11/17/2022 13:28,43.6475,111.9767,36.66,29,100,7.47,overcast clouds
430,Petrykivka,UA,11/17/2022 13:32,48.7298,34.6351,39.96,79,100,7.7,overcast clouds
431,Shitanjing,CN,11/17/2022 13:32,39.2342,106.3439,44.38,58,100,8.46,overcast clouds
432,Pjanici,BA,11/17/2022 13:32,44.9836,15.8228,58.05,73,62,5.86,broken clouds
433,Erzin,TR,11/17/2022 13:37,36.9559,36.2,61.81,73,21,4.14,few clouds
434,Igrim,RU,11/17/2022 13:32,63.1906,64.4162,1.94,82,45,9.98,scattered clouds
435,Deputatskiy,RU,11/17/2022 13:40,69.3,139.9,-30.33,100,36,2.1,scattered clouds
436,Bahia Blanca,AR,11/17/2022 13:32,-38.7196,-62.2724,87.3,36,39,1.01,scattered clouds
437,Boa Vista,BR,11/17/2022 13:40,2.8197,-60.6733,85.98,66,20,11.5,few clouds
438,Aksha,RU,11/17/2022 13:32,50.2814,113.2867,17.87,94,32,2.82,scattered clouds
439,Chicama,PE,11/17/2022 13:32,-7.8447,-79.1469,61.34,75,100,5.61,overcast clouds
440,Kletnya,RU,11/17/2022 13:32,53.3897,33.2171,28.11,63,100,7.2,overcast clouds
441,Vinkovci,HR,11/17/2022 13:32,45.2883,18.8047,51.75,87,20,6.91,few clouds
442,Tayga,RU,11/17/2022 13:32,56.06,85.6197,11.32,95,100,3.38,light snow
443,Tura,IN,11/17/2022 13:37,25.5198,90.2201,63.45,88,0,3.76,clear sky
444,Moree,AU,11/17/2022 13:32,-29.4667,149.85,57.99,45,0,6.85,clear sky
445,Obidos,BR,11/17/2022 13:32,-1.9175,-55.5181,92.98,36,73,5.82,broken clouds
446,Sobolevo,RU,11/17/2022 13:32,54.4299,31.8996,27.39,91,100,3.87,light snow
447,Tilichiki,RU,11/17/2022 13:40,60.4667,166.1,3.7,97,57,6.42,broken clouds
448,Chapais,CA,11/17/2022 13:32,49.7834,-74.8492,13.78,91,100,6.87,light snow
449,Urucara,BR,11/17/2022 13:32,-2.5364,-57.76,95.49,36,91,4.29,overcast clouds
450,Carauari,BR,11/17/2022 13:32,-4.8828,-66.8958,84.92,66,100,1.01,overcast clouds
451,Saint Anthony,US,11/17/2022 13:33,45.0205,-93.218,27.66,88,100,14.97,mist
452,Eydhafushi,MV,11/17/2022 13:33,5.1033,73.0708,81.97,77,3,13,clear sky
453,Bara,NG,11/17/2022 13:33,10.3744,10.7288,92.98,18,25,7.31,scattered clouds
454,Nanortalik,GL,11/17/2022 13:37,60.1432,-45.2371,21.36,75,26,13.06,scattered clouds
455,Riyadh,SA,11/17/2022 13:28,24.6877,46.7219,87.94,14,100,8.57,overcast clouds
456,Labuhan,ID,11/17/2022 13:40,-6.8844,112.2051,82.38,77,84,11.97,broken clouds
457,Valtice,CZ,11/17/2022 13:33,48.7407,16.755,44.78,80,100,7.47,overcast clouds
458,Teguise,ES,11/17/2022 13:33,29.0605,-13.564,70.02,78,20,17.27,few clouds
459,Beyneu,KZ,11/17/2022 13:33,45.3167,55.2,41.94,56,100,22.12,overcast clouds
460,Businga,CD,11/17/2022 13:33,3.3333,20.8833,81.99,67,90,4.72,light rain
461,Wewak,PG,11/17/2022 13:33,-3.5534,143.6268,80.46,82,99,5.26,overcast clouds
462,Parana,AR,11/17/2022 13:33,-31.732,-60.5238,87.57,46,4,10.07,clear sky
463,Acarau,BR,11/17/2022 13:37,-2.8856,-40.12,88.97,53,6,15.66,clear sky
464,Sihora,IN,11/17/2022 13:33,23.4833,80.1167,67.33,39,0,5.32,clear sky
465,Banepa,NP,11/17/2022 13:30,27.6298,85.5214,57.52,77,20,5.75,few clouds
466,Keshod,IN,11/17/2022 13:28,21.3,70.25,80.62,27,0,4.47,clear sky
467,Camana,PE,11/17/2022 13:33,-16.6228,-72.7111,68.7,74,93,9.31,overcast clouds
468,Puerto Ayacucho,VE,11/17/2022 13:33,5.6639,-67.6236,74.86,94,100,2.89,overcast clouds
469,Malanje,AO,11/17/2022 13:33,-9.5402,16.341,75.61,58,99,2.71,light rain
470,Tazmalt,DZ,11/17/2022 13:33,36.3868,4.3989,70.86,56,100,8.19,overcast clouds
471,Grindavik,IS,11/17/2022 13:37,63.8424,-22.4338,48.67,81,75,32.21,broken clouds
472,Maningrida,AU,11/17/2022 13:33,-12.0667,134.2667,78.75,84,41,1.61,scattered clouds
473,Porto Novo,BJ,11/17/2022 13:37,6.4965,2.6036,85.82,51,39,9.31,light rain
474,Karaton,ID,11/17/2022 13:33,-6.3424,106.1045,74.46,91,100,4.97,overcast clouds
475,San Agustin,MX,11/17/2022 13:33,20.5333,-103.4667,56.52,87,0,0,clear sky
476,Saldanha,ZA,11/17/2022 13:37,-33.0117,17.9442,71.65,69,100,22.88,overcast clouds
477,Hokitika,NZ,11/17/2022 13:37,-42.7167,170.9667,57.94,91,100,4.65,overcast clouds
478,Yulara,AU,11/17/2022 13:37,-25.2406,130.9889,73.56,63,0,12.75,clear sky
479,Barquisimeto,VE,11/17/2022 13:32,10.0739,-69.3228,68.63,88,100,4.61,overcast clouds
480,Katobu,ID,11/17/2022 13:33,-4.9408,122.5276,77.02,92,100,3.58,overcast clouds
481,Meadow Lake,US,11/17/2022 13:37,34.8014,-106.5436,28.69,71,0,1.28,clear sky
482,Trincomalee,LK,11/17/2022 13:33,8.5711,81.2335,79.39,67,100,13.35,overcast clouds
483,Hounde,BF,11/17/2022 13:33,11.5,-3.5167,92.93,9,95,8.79,overcast clouds
484,Bose,IT,11/17/2022 13:33,45.4612,8.0137,56.28,78,0,3.29,clear sky
485,Sale,MA,11/17/2022 13:33,34.0389,-6.8166,70.63,94,75,5.75,broken clouds
486,Andijon,UZ,11/17/2022 13:33,40.7821,72.3442,45.68,45,100,2.59,overcast clouds
487,Fort Frances,CA,11/17/2022 13:33,48.5999,-93.4003,16.02,79,100,0,mist
488,Zitlala,MX,11/17/2022 13:33,17.6333,-99.0833,57.51,72,91,3.69,overcast clouds
489,Timizart,DZ,11/17/2022 13:33,36.8,4.2667,71.42,55,68,15.46,broken clouds
490,Nadym,RU,11/17/2022 13:37,65.5333,72.5167,5.16,71,100,23.89,overcast clouds
491,Tabory,RU,11/17/2022 13:33,58.5198,64.5495,-5.75,97,5,2.89,clear sky
492,Komyshnya,UA,11/17/2022 13:33,50.1859,33.684,32.07,83,100,10.18,overcast clouds
493,Jatibonico,CU,11/17/2022 13:33,21.9419,-79.17,81.41,69,11,10.47,few clouds
494,Payson,US,11/17/2022 13:33,40.0444,-111.7321,30.4,75,0,3.44,clear sky
495,Nampula,MZ,11/17/2022 13:33,-15.1165,39.2666,91.35,35,75,3.44,broken clouds
496,Tanout,NE,11/17/2022 13:37,14.9709,8.8879,84.29,12,0,10.36,clear sky
497,Quelimane,MZ,11/17/2022 13:33,-17.8786,36.8883,91.35,33,40,13.8,scattered clouds
498,Njeru,UG,11/17/2022 13:33,0.4186,33.1731,73.18,73,44,2.44,light rain
499,Xining,CN,11/17/2022 13:37,36.6167,101.7667,37.42,47,71,3.44,broken clouds
500,Makaha,US,11/17/2022 13:33,21.4694,-158.2175,75.11,79,0,5.79,clear sky
501,Los Lunas,US,11/17/2022 13:33,34.8062,-106.7334,30.87,68,0,0.6,clear sky
502,Atikokan,CA,11/17/2022 13:33,48.7555,-91.6216,19.74,94,100,4.03,light snow
503,Wagar,SD,11/17/2022 13:33,16.1525,36.2032,95.61,19,0,4.72,clear sky
504,Dhidhdhoo,MV,11/17/2022 13:33,6.8833,73.1,82.49,72,74,6.49,broken clouds
505,Devanhalli,IN,11/17/2022 13:33,13.2325,77.6992,71.83,56,20,9.22,few clouds
506,Tromso,NO,11/17/2022 13:33,69.6496,18.957,30.38,86,0,2.3,clear sky
507,Santa Rosa,PH,11/17/2022 13:33,14.3122,121.1114,80.11,85,100,10.85,overcast clouds
508,Dumai,ID,11/17/2022 13:33,1.6833,101.45,76.24,83,99,2.71,overcast clouds
509,Glens Falls,US,11/17/2022 13:33,43.3095,-73.644,36.32,94,82,1.01,broken clouds
510,Puerto Escondido,MX,11/17/2022 13:33,15.85,-97.0667,72.43,78,40,5.75,scattered clouds
511,Xinyu,CN,11/17/2022 13:33,27.8043,114.9334,62.19,77,80,5.17,broken clouds
512,Abha,SA,11/17/2022 13:33,18.2164,42.5053,71.42,56,20,13.8,few clouds
513,Salalah,OM,11/17/2022 13:37,17.0151,54.0924,82.49,65,20,6.91,few clouds
514,Banda Aceh,ID,11/17/2022 13:29,5.5577,95.3222,79.93,78,100,12.35,overcast clouds
515,Hermiston,US,11/17/2022 13:33,45.8404,-119.2895,33.62,88,100,3.44,mist
516,Muisne,EC,11/17/2022 13:33,0.6,-80.0333,75.54,79,99,10.18,overcast clouds
517,Alibag,IN,11/17/2022 13:33,18.6411,72.8792,86.07,67,0,11.14,clear sky
518,Dunedin,NZ,11/17/2022 13:37,-45.8742,170.5036,52.81,95,100,1.01,overcast clouds
519,Ajdabiya,LY,11/17/2022 13:33,30.7554,20.2263,76.48,25,0,13.82,clear sky
520,Tual,ID,11/17/2022 13:33,-5.6667,132.75,83.08,73,100,4.27,light rain
521,Sudak,UA,11/17/2022 13:33,44.85,34.9667,56.77,87,100,19.48,light rain
522,Juan Lacaze,UY,11/17/2022 13:33,-34.4342,-57.4381,81.12,47,100,4.99,light rain
523,Alexandria,EG,11/17/2022 13:33,31.2156,29.9553,71.02,57,0,9.33,clear sky
524,Pao De Acucar,BR,11/17/2022 13:33,-9.7483,-37.4367,93.97,37,34,9.93,scattered clouds
525,Nemuro,JP,11/17/2022 13:37,43.3236,145.575,37.83,76,17,17.13,few clouds
526,Rio Verde De Mato Grosso,BR,11/17/2022 13:33,-18.9181,-54.8442,87.35,28,0,6.46,clear sky
527,Coracora,PE,11/17/2022 13:33,-15.0333,-73.7833,64.33,33,100,4.14,overcast clouds
528,Touros,BR,11/17/2022 13:40,-5.1989,-35.4608,86.4,54,6,16.08,clear sky
529,Kirkwood,US,11/17/2022 13:33,38.5834,-90.4068,25.59,83,40,6.91,scattered clouds
530,Nukus,UZ,11/17/2022 13:33,42.4531,59.6103,44.58,39,0,13.8,clear sky
531,Saryg-Sep,RU,11/17/2022 13:33,51.5,95.6,2.57,99,52,3.49,broken clouds
532,Vernon,CA,11/17/2022 13:33,50.2581,-119.2691,32.36,82,100,1.14,overcast clouds
533,Palauig,PH,11/17/2022 13:33,15.435,119.9045,82.11,76,50,4.38,scattered clouds
534,Tucuman,AR,11/17/2022 13:31,-26.8241,-65.2226,86,28,0,3.44,clear sky
535,Zhicheng,CN,11/17/2022 13:33,30.2956,111.5047,61.05,44,89,3.13,overcast clouds
536,Olinda,BR,11/17/2022 13:40,-8.0089,-34.8553,83.93,58,20,11.5,few clouds
537,Thinadhoo,MV,11/17/2022 13:33,0.5333,72.9333,81.99,73,18,13.89,few clouds
538,Lannion,FR,11/17/2022 13:33,48.75,-3.4167,54.01,87,75,14.97,broken clouds
539,Varva,UA,11/17/2022 13:33,50.495,32.7197,31.95,82,100,9.44,overcast clouds
540,Hamilton,US,11/17/2022 13:37,39.1834,-84.5333,32.05,78,100,10.36,overcast clouds
541,Pitimbu,BR,11/17/2022 13:33,-7.4706,-34.8086,84.79,61,38,11.14,scattered clouds
542,Kota Kinabalu,MY,11/17/2022 13:30,5.9749,116.0724,78.78,89,20,7,few clouds
543,Baherden,TM,11/17/2022 13:33,38.4362,57.4316,63.64,36,100,2.8,overcast clouds
544,Prata,BR,11/17/2022 13:33,-19.3072,-48.9242,92.77,23,0,3,clear sky
545,San Lawrenz,MT,11/17/2022 13:33,36.0553,14.204,69.21,87,95,20.51,overcast clouds
546,Zhigansk,RU,11/17/2022 13:40,66.7697,123.3711,-8.73,97,100,14.63,light snow
547,Huaraz,PE,11/17/2022 13:33,-9.5333,-77.5333,60.48,47,95,5.06,overcast clouds
548,Shubarkuduk,KZ,11/17/2022 13:33,49.1447,56.4872,31.3,82,100,17.6,overcast clouds
549,Xichang,CN,11/17/2022 13:33,27.8964,102.2634,50.2,61,0,2.04,clear sky
550,Kirensk,RU,11/17/2022 13:33,57.7853,108.1119,23.05,94,100,5.12,overcast clouds
551,Teterow,DE,11/17/2022 13:33,53.7833,12.5667,37.56,64,13,19.33,few clouds
552,Hay River,CA,11/17/2022 13:33,60.8156,-115.7999,12.18,79,75,6.91,broken clouds
553,Steamboat Springs,US,11/17/2022 13:33,40.485,-106.8317,15.39,87,100,0,overcast clouds
554,Cedar City,US,11/17/2022 13:30,37.6775,-113.0619,21.4,79,0,0,clear sky
555,San Pedro,PH,11/17/2022 13:33,14.35,121.0167,79.36,84,75,9.22,broken clouds
556,Pafos,CY,11/17/2022 13:37,34.7667,32.4167,71.38,56,20,13.8,few clouds
557,Catuday,PH,11/17/2022 13:33,16.2923,119.8062,80.73,68,71,7.83,broken clouds
558,Qiongshan,CN,11/17/2022 13:33,20.0058,110.3542,76.98,88,75,4.47,broken clouds
559,Korem,ET,11/17/2022 13:33,12.5058,39.5228,62.11,31,1,8.81,clear sky
560,Camara De Lobos,PT,11/17/2022 13:33,32.6333,-16.9667,77.13,83,40,5.99,scattered clouds
561,Zholymbet,KZ,11/17/2022 13:33,51.7433,71.7122,12.29,90,14,5.17,few clouds
562,Villa Union,MX,11/17/2022 13:33,23.2,-106.2333,65.91,100,0,0,clear sky
563,Adrar,MR,11/17/2022 13:37,20.5022,-10.0711,86.52,10,0,10.29,clear sky
564,Juba,SS,11/17/2022 13:28,4.8517,31.5825,88.97,39,88,6.53,overcast clouds
565,Maceio,BR,11/17/2022 13:37,-9.6658,-35.7353,85.44,61,40,9.22,scattered clouds
566,Loubomo,CG,11/17/2022 13:33,-4.1997,12.6739,72.37,93,98,3.67,light rain
567,Joshimath,IN,11/17/2022 13:31,30.5667,79.5667,46.02,38,0,7.74,clear sky
568,Barentu,ER,11/17/2022 13:33,15.1139,37.5928,87.76,20,4,9.64,clear sky
569,Jan Kempdorp,ZA,11/17/2022 13:33,-27.9225,24.8305,94.96,12,64,17.31,broken clouds
570,Pachino,IT,11/17/2022 13:33,36.7186,15.0907,68.43,74,92,20.47,overcast clouds
571,Terme,TR,11/17/2022 13:33,41.2092,36.9739,66.13,59,79,7.23,broken clouds
572,Beloha,MG,11/17/2022 13:33,-25.1667,45.05,78.76,53,0,12.75,clear sky
573,Chengde,CN,11/17/2022 13:33,40.9725,117.9361,42.84,51,100,3.24,overcast clouds
574,Kabinda,CD,11/17/2022 13:33,-6.1333,24.4833,78.8,69,96,2.77,light rain
575,Kaitong,CN,11/17/2022 13:33,44.8135,123.15,30.81,69,0,10.04,clear sky
576,Filadelfia,US,11/17/2022 13:33,39.9523,-75.1638,40.05,68,75,14.97,broken clouds
577,Zhangye,CN,11/17/2022 13:33,38.9342,100.4517,33.62,33,9,4.07,clear sky
578,Quixada,BR,11/17/2022 13:33,-4.9714,-39.0153,91.38,38,10,7.2,clear sky
579,Belaya Kalitva,RU,11/17/2022 13:33,48.17,40.78,48.15,86,100,11.36,overcast clouds
580,Kazerun,IR,11/17/2022 13:33,29.6195,51.6541,69.24,52,99,0.81,overcast clouds
581,Havoysund,NO,11/17/2022 13:37,70.9963,24.6622,43.03,75,39,2.28,scattered clouds
582,Marsh Harbour,BS,11/17/2022 13:37,26.5412,-77.0636,78.31,73,2,4.25,clear sky
583,Sevierville,US,11/17/2022 13:33,35.8681,-83.5618,34.07,72,0,0,clear sky
584,Coron,PH,11/17/2022 13:33,11.9986,120.2043,79.54,88,100,17.07,overcast clouds
585,Dawlatabad,AF,11/17/2022 13:33,36.4141,64.9053,57.18,45,99,6.85,overcast clouds
586,Big Spring,US,11/17/2022 13:33,32.2504,-101.4787,37.24,59,0,4.61,clear sky
587,Nerchinskiy Zavod,RU,11/17/2022 13:33,51.3088,119.61,3.29,99,59,3.09,broken clouds
588,Sao Filipe,CV,11/17/2022 13:37,14.8961,-24.4956,80.44,63,28,7.87,scattered clouds
589,Shache,CN,11/17/2022 13:33,38.4167,77.2406,47.82,18,40,9.35,scattered clouds
590,Tautira,PF,11/17/2022 13:37,-17.7333,-149.15,77,81,64,4.7,light rain
591,Saint-Junien,FR,11/17/2022 13:33,45.8833,0.9,54.84,89,71,8.99,broken clouds
592,Aba,NG,11/17/2022 13:30,5.1066,7.3667,85.62,54,100,3.36,overcast clouds
593,Ryotsu,JP,11/17/2022 13:33,38.0833,138.4333,51.51,62,88,6.71,overcast clouds
594,Andenes,NO,11/17/2022 13:38,69.3143,16.1194,35.58,87,0,10.36,clear sky
595,Bam,IR,11/17/2022 13:33,29.106,58.357,72.55,24,64,1.01,broken clouds
596,Ulaanbaatar,MN,11/17/2022 13:28,47.9077,106.8832,15.93,79,75,2.24,broken clouds
597,Ust-Omchug,RU,11/17/2022 13:33,61.15,149.6333,-16.58,98,100,3.69,overcast clouds
598,Yerbogachen,RU,11/17/2022 13:38,61.2767,108.0108,-7.06,100,74,4.65,broken clouds
599,Boddam,GB,11/17/2022 13:38,57.4667,-1.7833,46.78,80,100,35.28,moderate rain
600,Porto Santo,PT,11/17/2022 13:33,33.072,-16.3415,73.78,64,20,13.8,few clouds
601,Yichang,CN,11/17/2022 13:40,30.7144,111.2847,58.78,52,40,1.7,scattered clouds
602,Wodonga,AU,11/17/2022 13:33,-36.1167,146.8833,51.96,100,0,3.78,clear sky
603,Sharkan,RU,11/17/2022 13:33,57.2989,53.8712,15.4,86,85,8.7,overcast clouds
604,Manokwari,ID,11/17/2022 13:33,-0.8667,134.0833,78.31,85,100,3.89,overcast clouds
605,Lira,UG,11/17/2022 13:33,2.235,32.9097,73.67,69,73,4.52,light rain
606,Beipiao,CN,11/17/2022 13:33,41.7919,120.7792,40.37,55,36,4.34,scattered clouds
607,Charters Towers,AU,11/17/2022 13:38,-20.1,146.2667,73.02,86,4,11.74,clear sky
608,Arona,ES,11/17/2022 13:33,28.0996,-16.681,75.9,61,0,17.27,clear sky
609,Staryy Nadym,RU,11/17/2022 13:33,65.6118,72.6842,5.32,72,100,22.91,overcast clouds
610,Mayo,US,11/17/2022 13:38,38.8876,-76.5119,41.25,48,100,18.41,overcast clouds
611,Kieta,PG,11/17/2022 13:38,-6.2167,155.6333,78.13,81,100,3.13,overcast clouds
612,Izmit,TR,11/17/2022 13:33,40.7669,29.9169,69.39,56,75,8.05,broken clouds
613,Kaduna,NG,11/17/2022 13:33,10.5222,7.4383,91.06,18,77,4.36,broken clouds
614,Bilibino,RU,11/17/2022 13:33,68.0546,166.4372,-10.62,100,98,2.39,overcast clouds
615,Numaran,MX,11/17/2022 13:33,20.25,-101.9333,56.21,69,1,2.95,clear sky
616,Liku,ID,11/17/2022 13:33,-0.7275,119.8922,76.98,94,100,0.81,overcast clouds
617,Taltal,CL,11/17/2022 13:33,-25.4,-70.4833,67.1,71,57,5.32,broken clouds
618,Tambura,SS,11/17/2022 13:33,5.6,27.4667,90.46,28,53,6.24,broken clouds
619,Pangkalanbuun,ID,11/17/2022 13:33,-2.6833,111.6167,76.62,94,100,1.9,light rain
620,Martapura,ID,11/17/2022 13:35,-3.4167,114.85,78.89,94,40,3.44,heavy intensity rain
621,Ulvik,NO,11/17/2022 13:33,60.5672,6.9187,38.75,57,0,7.61,clear sky
622,Jaffna,LK,11/17/2022 13:30,9.6685,80.0074,79.05,65,96,13.82,overcast clouds
623,Cabedelo,BR,11/17/2022 13:38,-6.9811,-34.8339,84.87,60,38,12.71,scattered clouds
624,Yuzhnyy,RU,11/17/2022 13:33,53.2542,83.6936,17.98,86,75,8.95,light shower snow
625,Balabac,PH,11/17/2022 13:33,7.9868,117.0645,80.92,83,100,14.45,light rain
626,Aswan,EG,11/17/2022 13:33,24.0934,32.907,76.57,24,100,11.3,overcast clouds
627,Chabua,IN,11/17/2022 13:31,27.4825,95.1736,62.4,78,0,2.3,clear sky
628,Claver,PH,11/17/2022 13:33,9.5725,125.7331,76.51,86,65,3.38,light rain
629,Andilamena,MG,11/17/2022 13:33,-17.0167,48.5833,66.51,85,94,7.38,heavy intensity rain
630,Svetlogorsk,BY,11/17/2022 13:33,52.6333,29.7333,29.03,63,7,5.84,clear sky
631,Marsa Matruh,EG,11/17/2022 13:33,31.3525,27.2453,73.18,36,0,6.49,clear sky
632,Pochutla,MX,11/17/2022 13:33,15.7432,-96.4661,73.22,65,82,2.57,broken clouds
633,Camacha,PT,11/17/2022 13:33,33.0833,-16.3333,71.02,64,20,13.8,few clouds
634,North Bend,US,11/17/2022 13:33,43.4065,-124.2243,39.85,93,0,5.75,clear sky
635,Liverpool,GB,11/17/2022 13:33,53.4106,-2.9779,51.75,92,75,13.8,shower rain
636,Calmar,CA,11/17/2022 13:33,53.2668,-113.8187,2.7,84,75,6.91,broken clouds
637,Guayabal,CO,11/17/2022 13:33,5.031,-74.8868,78.17,82,100,1.81,overcast clouds
638,Geneva,US,11/17/2022 13:31,41.8875,-88.3054,30.06,79,100,17.27,overcast clouds
639,Conde,BR,11/17/2022 13:33,-7.2597,-34.9075,83.66,58,40,13.8,scattered clouds
640,Shagonar,RU,11/17/2022 13:33,51.5333,92.8,12.88,89,68,1.95,broken clouds
641,Sadri,IN,11/17/2022 13:33,25.1833,73.4333,68.94,27,0,4.38,clear sky
642,Hervey Bay,AU,11/17/2022 13:38,-25.2986,152.8535,68.02,60,0,11.01,clear sky
643,Senador Guiomard,BR,11/17/2022 13:33,-10.1522,-67.7392,78.55,54,100,2.01,overcast clouds
644,Sinop,TR,11/17/2022 13:38,41.7711,34.8709,57.63,53,99,7.34,overcast clouds
645,Sing Buri,TH,11/17/2022 13:33,14.85,100.2333,77.97,85,94,1.88,light rain
646,Exu,BR,11/17/2022 13:33,-7.5119,-39.7242,92.75,30,10,5.17,clear sky
647,Auki,SB,11/17/2022 13:38,-8.7676,160.7034,77,88,70,2.51,broken clouds
648,Navirai,BR,11/17/2022 13:33,-23.065,-54.1906,77.54,51,0,8.28,clear sky
649,Gopalpur,IN,11/17/2022 13:38,19.2667,84.9167,75,59,0,5.66,clear sky
650,Saint-Joseph,RE,11/17/2022 13:38,-21.3667,55.6167,75.58,69,43,7.49,scattered clouds
651,Yashalta,RU,11/17/2022 13:33,46.3395,42.2762,55.44,71,100,9.31,overcast clouds
652,Kindia,GN,11/17/2022 13:33,10.0569,-12.8658,87.4,34,86,4.83,overcast clouds
653,Sao Felix Do Xingu,BR,11/17/2022 13:34,-6.6447,-51.995,85.86,67,98,1.77,overcast clouds
654,Biu,NG,11/17/2022 13:34,10.6129,12.1946,87.94,20,33,6.06,scattered clouds
655,Vanimo,PG,11/17/2022 13:38,-2.6741,141.3028,78.75,85,97,3,overcast clouds
656,Ambovombe,MG,11/17/2022 13:34,-25.1667,46.0833,75.34,61,0,11.99,clear sky
657,Diego De Almagro,CL,11/17/2022 13:34,-26.3667,-70.05,74.23,36,1,3.29,clear sky
658,Middletown,US,11/17/2022 13:34,39.5151,-84.3983,31.77,83,100,13.8,overcast clouds
659,Batticaloa,LK,11/17/2022 13:33,7.7102,81.6924,78.03,70,99,14.45,overcast clouds
660,Bom Jesus,BR,11/17/2022 13:34,-9.0744,-44.3586,94.77,37,99,3.96,overcast clouds
661,Cayenne,GF,11/17/2022 13:38,4.9333,-52.3333,86.04,66,40,6.91,scattered clouds
662,Cam Ranh,VN,11/17/2022 13:38,11.9214,109.1591,80.56,83,20,10.36,few clouds
663,Abu Kamal,SY,11/17/2022 13:34,34.4506,40.9171,68.09,43,5,6.44,clear sky
664,Gunjur,GM,11/17/2022 13:38,13.2019,-16.7339,89.67,55,0,9.22,clear sky
665,Sault Sainte Marie,CA,11/17/2022 13:34,46.5168,-84.3333,21.49,73,100,3.44,overcast clouds
666,Jumla,NP,11/17/2022 13:34,29.2747,82.1838,40.66,78,2,3.69,clear sky
667,Aguimes,ES,11/17/2022 13:34,27.9054,-15.4461,77.67,73,20,16.11,few clouds
668,Porto Walter,BR,11/17/2022 13:34,-8.2686,-72.7439,83.62,65,100,1.72,overcast clouds
669,Quevedo,EC,11/17/2022 13:34,-1.0333,-79.45,79.65,61,97,5.44,overcast clouds
670,Kuching,MY,11/17/2022 13:31,1.55,110.3333,79.02,89,20,3.44,moderate rain
671,Progreso,MX,11/17/2022 13:38,21.2833,-89.6667,78.12,83,100,11.99,light rain
672,Harper,LR,11/17/2022 13:38,4.375,-7.7169,83.17,69,79,8.84,light rain
673,Biltine,TD,11/17/2022 13:34,14.5333,20.9167,90.28,14,0,6.11,clear sky
674,Antsohihy,MG,11/17/2022 13:34,-14.8796,47.9875,83.53,58,27,9.84,light rain
675,Puerto Narino,CO,11/17/2022 13:34,-3.7703,-70.3831,74.34,96,100,2.59,overcast clouds
